[
    {
        "Station_id": 1,
        "Station_Name": "Sharge สถานีชาร์จรถไฟฟ้า สันทราย เชียงใหม่",
        "Station_At": "The Spring Condo Loft บ้านแพะ ตำบล แม่แฝก อำเภอสันทราย เชียงใหม่ 50290",
        "lat": "18.9965075",
        "lon": "98.9978829"
    },
    {
        "Station_id": 2,
        "Station_Name": "Sharge สถานีชาร์จรถไฟฟ้า เมืองเชียงใหม่ เชียงใหม่",
        "Station_At": "91 ถ. ซุปเปอร์ไฮเวย์ เชียงใหม่-ลำปาง ตำบล ฟ้าฮ่าม อำเภอเมืองเชียงใหม่ เชียงใหม่ 50000",
        "lat": "18.808083",
        "lon": "99.016117"
    },
    {
        "Station_id": 3,
        "Station_Name": "Sharge สถานีชาร์จรถไฟฟ้า เมืองเชียงใหม่ เชียงใหม่",
        "Station_At": "P2X9+4JQ ตำบลหนองหอย อำเภอเมืองเชียงใหม่ เชียงใหม่ 50140",
        "lat": "18.74785",
        "lon": "99.0191"
    },
    {
        "Station_id": 4,
        "Station_Name": "MG SUPER CHARGE สถานีชาร์จรถไฟฟ้า สันทราย เชียงใหม่",
        "Station_At": "Super 104 หมู่ 1 ตำบล ยางเนิ้ง อำเภอ สารภี เชียงใหม่ 50000",
        "lat": "18.7275185",
        "lon": "99.0402282"
    },
    {
        "Station_id": 5,
        "Station_Name": "MG SUPER CHARGE สถานีชาร์จรถไฟฟ้า สันทราย เชียงใหม่",
        "Station_At": "555 ตำบล หนองจ๊อม อำเภอสันทราย เชียงใหม่ 50210",
        "lat": "18.8522483",
        "lon": "99.0108769"
    },
    {
        "Station_id": 6,
        "Station_Name": "MG SUPER CHARGE สถานีชาร์จรถไฟฟ้า เมืองเชียงใหม่ เชียงใหม่",
        "Station_At": "107 moo7 Ban ตำบลป่าแดด อำเภอเมืองเชียงใหม่ เชียงใหม่ 50100",
        "lat": "18.7442002",
        "lon": "98.9769169"
    },
    {
        "Station_id": 7,
        "Station_Name": "MG SUPER CHARGE สถานีชาร์จรถไฟฟ้า เมืองเชียงใหม่ เชียงใหม่",
        "Station_At": "49 ถนน มหิดล อำเภอเมืองเชียงใหม่ เชียงใหม่ 50100",
        "lat": "18.767945",
        "lon": "98.9804975"
    },
    {
        "Station_id": 8,
        "Station_Name": "EV Station สถานีชาร์จรถไฟฟ้า สารภี เชียงใหม่",
        "Station_At": "75 Saichiangmairumpang Rd อำเภอ สารภี เชียงใหม่ 50140",
        "lat": "18.6696326",
        "lon": "99.0518699"
    },
    {
        "Station_id": 9,
        "Station_Name": "EV Station สถานีชาร์จรถไฟฟ้า เมืองเชียงใหม่ เชียงใหม่",
        "Station_At": "QX9M+79V ตำบลป่าแดด อำเภอเมืองเชียงใหม่ เชียงใหม่ 50100",
        "lat": "18.7682406",
        "lon": "98.983417"
    },
    {
        "Station_id": 10,
        "Station_Name": "EV Station สถานีชาร์จรถไฟฟ้า สันกำแพง เชียงใหม่",
        "Station_At": "209 Village No.8 เชียงใหม่ ตำบล สันกำแพง อำเภอสันกำแพง เชียงใหม่ 50130",
        "lat": "18.7511051",
        "lon": "99.0631361"
    },
    {
        "Station_id": 11,
        "Station_Name": "EVolt สถานีชาร์จรถไฟฟ้า เมืองเชียงใหม่ เชียงใหม่",
        "Station_At": "146 ทางคู่ขนานถนน ซูเปอร์ไฮเวย์ ตำบลช้างเผือก อำเภอเมืองเชียงใหม่ เชียงใหม่ 50300",
        "lat": "18.8115938",
        "lon": "98.9899904"
    },
    {
        "Station_id": 12,
        "Station_Name": "EVolt สถานีชาร์จรถไฟฟ้า เมืองเชียงใหม่ เชียงใหม่",
        "Station_At": "2 ถนน มหิดล ตำบลป่าแดด อำเภอเมืองเชียงใหม่ เชียงใหม่ 50100",
        "lat": "18.7694765",
        "lon": "98.9752825"
    },
    {
        "Station_id": 13,
        "Station_Name": "EVolt สถานีชาร์จรถไฟฟ้า เมืองเชียงใหม่ เชียงใหม่",
        "Station_At": "252/1 ถนน มหิดล ตำบลป่าแดด อำเภอเมืองเชียงใหม่ เชียงใหม่ 50100",
        "lat": "18.7695628",
        "lon": "98.9752664"
    },
    {
        "Station_id": 14,
        "Station_Name": "EVolt สถานีชาร์จรถไฟฟ้า เมืองเชียงใหม่ เชียงใหม่",
        "Station_At": "99/3 ถ. ซุปเปอร์ไฮเวย์ เชียงใหม่-ลำปาง ตำบล ฟ้าฮ่าม อำเภอเมืองเชียงใหม่ เชียงใหม่ 50000",
        "lat": "18.8067525",
        "lon": "99.0181883"
    },
    {
        "Station_id": 15,
        "Station_Name": "EVolt สถานีชาร์จรถไฟฟ้า เมืองเชียงใหม่ เชียงใหม่",
        "Station_At": "439 ถนน เจริญราษฏร์ ตำบลวัดเกต อำเภอเมืองเชียงใหม่ เชียงใหม่ 50000",
        "lat": "18.80822",
        "lon": "99.0046136"
    },
    {
        "Station_id": 16,
        "Station_Name": "EA Anywhere สถานีชาร์จรถไฟฟ้า เมืองเชียงใหม่ เชียงใหม่ ดีเคปาร์ค",
        "Station_At": "-",
        "lat": "18.7679549",
        "lon": "98.9839944"
    }
]